[
  {
    "type": "resource",
    "id": "1",
    "resource": "Water Bottles",
    "quantity": 50,
    "address": "Relief Camp, Main Road, Chennai",
    "location": { "latitude": 13.0827, "longitude": 80.2707 },
    "DonorName": "Red Cross",
    "ResourceType": "Water"
  },
  {
    "type": "resource",
    "id": "2",
    "resource": "Blankets",
    "quantity": 30,
    "address": "Community Hall, Kochi",
    "location": { "latitude": 9.9312, "longitude": 76.2673 },
    "DonorName": "Helping Hands NGO",
    "ResourceType": "Shelter"
  },
  {
    "type": "resource",
    "id": "3",
    "resource": "Rice Bags",
    "quantity": 20,
    "address": "Relief Center, Hyderabad",
    "location": { "latitude": 17.3850, "longitude": 78.4867 },
    "DonorName": "Local Volunteers",
    "ResourceType": "Food"
  },
  {
    "type": "resource",
    "id": "4",
    "resource": "First Aid Kits",
    "quantity": 15,
    "address": "Health Camp, Bengaluru",
    "location": { "latitude": 12.9716, "longitude": 77.5946 },
    "DonorName": "Doctors Without Borders",
    "ResourceType": "Medicine"
  },
  {
    "type": "resource",
    "id": "5",
    "resource": "Clothes",
    "quantity": 40,
    "address": "Distribution Point, Kolkata",
    "location": { "latitude": 22.5726, "longitude": 88.3639 },
    "DonorName": "Relief Foundation",
    "ResourceType": "Shelter"
  }
]
